,Municipality,Province,Inhabitants,Total area,Land area,Inhabitants per square km,Average household income,Latitude,Longitude
0,Aa en Hunze,Drenthe,25386.0,278.87,276.09,92.0,30700.0,52.9814393,6.72945206177796
1,Aalsmeer,Noord-Holland,31724.0,32.29,20.12,1566.0,34000.0,52.2658344,4.76617003966931
2,Aalten,Gelderland,27007.0,97.05,96.54,279.0,27800.0,51.9285668,6.5809018
3,Achtkarspelen,Friesland,27871.0,103.98,102.23,273.0,25500.0,53.20751675,6.15076370517544
4,Alblasserdam,Zuid-Holland,20060.0,10.06,8.78,2280.0,28800.0,51.8599524,4.66620227544248
5,Albrandswaard,Zuid-Holland,25292.0,23.76,21.69,1163.0,34400.0,51.8524269,4.43528536264633
6,Alkmaar,Noord-Holland,108578.0,117.35,110.46,982.0,28600.0,52.63373645,4.7402031936764
7,Almelo,Overijssel,72883.0,69.41,67.27,1080.0,25700.0,52.3567956,6.66725277634109
8,Almere,Flevoland,207819.0,248.77,129.19,1579.0,28800.0,52.44175125,5.20929431043276
9,Alphen aan den Rijn,Zuid-Holland,111036.0,132.5,126.23,869.0,30900.0,52.1343369,4.6561357
10,Alphen-Chaam,Noord-Brabant,10139.0,93.52,93.04,108.0,32500.0,51.50689565,4.87135986651391
11,Altena,Noord-Brabant,55391.0,,,,,51.2990263,7.6734841
12,Ameland,Friesland,3674.0,268.5,59.11,62.0,,53.40670555,5.74915904890865
13,Amersfoort,Utrecht (provincie),156294.0,63.86,62.62,2479.0,30900.0,52.1637739,5.3965879493517
14,Amstelveen,Noord-Holland,90827.0,44.08,41.13,2185.0,34300.0,52.2862177,4.85264925974603
15,Amsterdam,Noord-Holland,863202.0,219.49,165.5,5160.0,29700.0,52.3745403,4.89797550561798
16,Apeldoorn,Gelderland,162456.0,341.15,339.89,474.0,29200.0,52.2156457,5.9639485
17,Appingedam,Groningen (provincie),11713.0,24.58,23.78,496.0,24900.0,53.31872515,6.84417106967252
18,Arnhem,Gelderland,159277.0,101.54,97.82,1607.0,26300.0,52.0056642,5.87623450776413
19,Assen,Drenthe,67970.0,83.45,81.89,827.0,27200.0,52.99037165,6.55337777064233
20,Asten,Noord-Brabant,16714.0,71.34,70.17,238.0,29900.0,51.4043498,5.7449218
21,Baarle-Nassau,Noord-Brabant,6848.0,76.29,76.14,89.0,29800.0,51.4432069,4.930569
22,Baarn,Utrecht (provincie),24764.0,33.01,32.54,757.0,34700.0,52.2002549,5.26914339331394
23,Barendrecht,Zuid-Holland,48688.0,21.73,19.75,2455.0,33500.0,51.85193795,4.52938352520747
24,Barneveld,Gelderland,57960.0,176.66,175.9,326.0,30500.0,52.142479,5.5866392
25,Beek,Limburg,15927.0,21.03,21.03,756.0,29900.0,51.50796195,5.10965934173815
26,Beekdaelen,Limburg,35722.0,,,,,50.93449595,5.88869051100548
27,Beemster,Noord-Holland,9748.0,72.07,70.58,135.0,34300.0,52.56245505,4.91986790415572
28,Beesel,Limburg,13526.0,29.15,27.99,480.0,28100.0,51.26488805,6.03773593672602
29,Berg en Dal,Gelderland,34766.0,93.31,86.35,402.0,29100.0,51.825881,5.9100531
30,Bergeijk,Noord-Brabant,18497.0,101.75,101.0,182.0,31700.0,51.30452025,5.31841374716957
31,Bergen (Limburg),Limburg,13134.0,108.5,103.24,127.0,28100.0,51.6060195,6.05767144450122
32,Bergen (Noord-Holland),Noord-Holland,29965.0,120.23,98.96,303.0,35800.0,52.6676625,4.7080403
33,Bergen op Zoom,Noord-Brabant,66805.0,93.13,79.96,830.0,28300.0,51.4965864,4.28974079726371
34,Berkelland,Gelderland,43899.0,260.21,258.06,171.0,28500.0,52.10152,6.61840457688394
35,Bernheze,Noord-Brabant,30802.0,90.41,89.73,340.0,31800.0,51.68353285,5.52124281647705
36,Best,Noord-Brabant,29823.0,35.1,34.3,860.0,32299.999999999996,51.510017,5.39866199005647
37,Beuningen,Gelderland,25896.0,47.09,43.65,591.0,30600.0,51.85859,5.76749
38,Beverwijk,Noord-Holland,41168.0,20.09,18.4,2232.0,27900.0,52.478626,4.6732036218509
39,De Bilt,Utrecht (provincie),42809.0,67.13,66.12,648.0,35900.0,52.1038467,5.19093085070224
40,Bladel,Noord-Brabant,20175.0,75.62,75.33,267.0,30800.0,51.3667765,5.2154317
41,Blaricum,Noord-Holland,11198.0,15.56,11.11,971.0,48800.0,52.28113375,5.29371090566366
42,Bloemendaal,Noord-Holland,23409.0,45.23,39.79,583.0,50800.0,52.4036594,4.6197687
43,Bodegraven-Reeuwijk,Zuid-Holland,34470.0,88.64,75.38,450.0,34100.0,52.0677553,4.7575800066386
44,Boekel,Noord-Brabant,10587.0,34.52,34.51,304.0,30500.0,51.60571795,5.67482198339827
46,Borger-Odoorn,Drenthe,25359.0,277.89,274.53,92.0,27900.0,52.9000925,6.88216148192829
48,Borsele,Zeeland,22801.0,194.52,141.57,160.0,29800.0,51.4289113,3.83588438663442
49,Boxmeer,Noord-Brabant,29059.0,113.84,111.44,259.0,30100.0,51.6486483,5.9450972
50,Boxtel,Noord-Brabant,30738.0,64.85,63.73,481.0,29500.0,51.5903233,5.30587934176726
51,Breda,Noord-Brabant,184069.0,128.68,125.74,1459.0,30300.0,51.5644477,4.75122959738863
52,Brielle,Zuid-Holland,17184.0,31.14,27.55,619.0,32800.0,51.907479,4.16708617673985
53,Bronckhorst,Gelderland,36219.0,286.42,283.5,128.0,31000.0,52.0529087,6.26927478134942
54,Brummen,Gelderland,20672.0,85.01,83.65,248.0,30000.0,52.087327,6.1568633
55,Brunssum,Limburg,28121.0,17.34,17.25,1637.0,25700.0,50.94382155,5.97482508471928
56,Bunnik,Utrecht (provincie),15188.0,37.57,36.97,412.0,35200.0,52.0663338,5.1941182
57,Bunschoten,Utrecht (provincie),21588.0,34.81,30.38,700.0,30800.0,52.2391726,5.3735818
58,Buren,Gelderland,26578.0,142.92,133.89,197.0,31900.0,51.9112553,5.3338217
59,Capelle aan den IJssel,Zuid-Holland,66822.0,15.4,14.14,4728.0,28600.0,51.9358538,4.58946093551115
60,Castricum,Noord-Holland,35754.0,60.4,49.68,717.0,34400.0,52.55883055,4.63967552620015
61,Coevorden,Drenthe,35497.0,299.69,296.07,119.0,28300.0,52.65266925,6.73931888700973
62,Cranendonck,Noord-Brabant,20436.0,78.05,76.4,266.0,30200.0,51.3040507,5.5887741
63,Cuijk,Noord-Brabant,24931.0,57.07,51.16,487.0,28700.0,51.729939,5.8800458
64,Culemborg,Gelderland,28544.0,31.14,29.29,963.0,30100.0,51.94933145,5.20921518362178
65,Dalfsen,Overijssel,28487.0,166.52,165.07,171.0,30400.0,52.5111721,6.253911
67,Delft,Zuid-Holland,103217.0,24.06,22.65,4514.0,28200.0,51.9994572,4.362724538544
68,Delfzijl,Groningen (provincie),24709.0,227.5,133.07,187.0,25800.0,53.3809218,6.93109835966104
69,Deurne,Noord-Brabant,32354.0,118.36,116.93,275.0,29500.0,51.4611926,5.7914611
70,Deventer,Overijssel,99941.0,134.33,130.68,763.0,27600.0,52.24927325,6.17613063984559
71,Diemen,Noord-Holland,29205.0,14.04,11.99,2345.0,29500.0,52.3350493,4.98428432770381
72,Dinkelland,Overijssel,26340.0,176.83,175.71,150.0,30800.0,52.3714488,6.91506661931692
73,Doesburg,Gelderland,11142.0,12.96,11.53,983.0,26800.0,52.0187505,6.15155827430855
74,Doetinchem,Gelderland,57543.0,79.66,79.05,726.0,28000.0,51.9655192,6.2891093
75,Dongen,Noord-Brabant,26061.0,29.74,29.24,881.0,29800.0,51.6247384,4.9366784
76,Dordrecht,Zuid-Holland,118667.0,99.47,78.54,1508.0,27900.0,51.8075316,4.6677478
77,Drechterland,Noord-Holland,19604.0,80.59,58.89,330.0,31000.0,52.65570515,5.18535946066344
78,Drimmelen,Noord-Brabant,27162.0,119.43,95.18,284.0,31300.0,51.7081516,4.8046508
79,Dronten,Flevoland,40797.0,423.89,333.57,122.0,29000.0,52.53172775,5.75053478514506
80,Druten,Gelderland,18790.0,42.46,37.64,497.0,29600.0,51.88473605,5.60042658345203
81,Duiven,Gelderland,25339.0,35.19,33.9,750.0,29600.0,51.9495859,6.024594
82,Echt-Susteren,Limburg,31646.0,104.62,103.07,308.0,29000.0,51.0821352,5.8991255475337
83,Edam-Volendam,Noord-Holland,36094.0,80.0,54.33,662.0,33000.0,52.54861165,5.02661566420633
84,Ede,Gelderland,115732.0,318.62,318.18,360.0,30000.0,52.0458265,5.6702011
85,Eemnes,Utrecht (provincie),9117.0,33.7,31.04,294.0,33700.0,52.2547415,5.28607099551365
86,Eersel,Noord-Brabant,19111.0,83.33,82.46,228.0,35000.0,51.3586373,5.3201315
87,Eijsden-Margraten,Limburg,25654.0,78.76,77.74,329.0,32100.0,50.8049942,5.76828165223431
88,Eindhoven,Noord-Brabant,231469.0,88.92,87.66,2614.0,28900.0,51.4392648,5.478633
90,Emmen,Drenthe,107111.0,346.26,335.18,320.0,26200.0,52.78183695,6.90087452632109
91,Enkhuizen,Noord-Holland,18510.0,116.25,12.68,1457.0,28200.0,52.7577195,5.32069409037035
92,Enschede,Overijssel,158961.0,142.72,140.83,1124.0,25400.0,52.22336325,6.87059566409799
93,Epe,Gelderland,33151.0,157.37,156.07,211.0,29600.0,52.3467875,5.9837267
94,Ermelo,Gelderland,26855.0,87.33,85.63,313.0,31100.0,52.30015,5.62302
95,Etten-Leur,Noord-Brabant,43786.0,55.92,55.3,787.0,29400.0,51.57593705,4.64322159394737
96,De Friese Meren,Friesland,51442.0,549.1,351.29,147.0,28700.0,52.9597686,5.9320827
97,Geertruidenberg,Noord-Brabant,21515.0,29.64,26.63,808.0,29700.0,51.69646695,4.84674311245734
98,Geldrop-Mierlo,Noord-Brabant,39588.0,31.39,31.01,1266.0,30000.0,51.43182315,5.591809905322
99,Gemert-Bakel,Noord-Brabant,30458.0,123.34,122.14,248.0,29300.0,51.5410462,5.75536124470455
100,Gennep,Limburg,17072.0,50.42,47.62,358.0,28600.0,51.70096,5.96786315208325
101,Gilze en Rijen,Noord-Brabant,26451.0,65.66,65.38,402.0,29400.0,51.56323905,4.91303939100513
102,Goeree-Overflakkee,Zuid-Holland,49610.0,422.35,260.48,189.0,30300.0,51.7525798,4.12241150855911
103,Goes,Zeeland,37654.0,101.92,92.58,407.0,28900.0,51.5031144,3.88924980553989
104,Goirle,Noord-Brabant,23780.0,43.38,42.99,549.0,31200.0,51.5239585,5.0661977
105,Gooise Meren,Noord-Holland,57709.0,75.22,41.59,1378.0,38200.0,52.322224,5.10455678556377
106,Gorinchem,Zuid-Holland,36679.0,21.93,18.83,1927.0,28800.0,51.8421872,4.97460046726009
107,Gouda,Zuid-Holland,73161.0,18.11,16.5,4405.0,28900.0,52.01811935,4.7111221346978
108,Grave,Noord-Brabant,12478.0,28.03,27.18,457.0,29500.0,51.76025475,5.7338862339303
109,Den Haag,Zuid-Holland,537988.0,98.13,82.45,6459.0,28300.0,52.07494555,4.26968022053645
110,Groningen (gemeente),Groningen (provincie),231354.0,101.5,94.92,2137.0,25700.0,53.21640915,6.50103512434397
111,Gulpen-Wittem,Limburg,14258.0,73.36,73.18,194.0,29300.0,50.79962605,5.8905296752731
112,Haaksbergen,Overijssel,24270.0,105.5,104.82,232.0,29200.0,52.16212075,6.77535377710186
113,Haaren,Noord-Brabant,14192.0,58.56,57.7,244.0,34800.0,51.6036127,5.2272278
114,Haarlem,Noord-Holland,161213.0,32.09,29.17,5476.0,30300.0,52.38370575,4.64355969655963
115,Haarlemmermeer,Noord-Holland,154223.0,185.13,178.26,826.0,32600.0,52.3238421,4.71526124887601
116,Halderberge,Noord-Brabant,30191.0,75.21,74.47,401.0,29500.0,51.58976405,4.51348332101128
117,Hardenberg,Overijssel,60575.0,317.15,312.28,194.0,27900.0,52.5691252,6.61593837861793
118,Harderwijk,Gelderland,47572.0,48.27,38.89,1204.0,28700.0,52.33599915,5.64027152139206
119,Hardinxveld-Giessendam,Zuid-Holland,18053.0,19.35,16.91,1062.0,29400.0,51.83862405,4.82461042390934
121,Hattem,Gelderland,12170.0,24.16,23.08,527.0,31500.0,52.4767117,6.06191326114165
122,Heemskerk,Noord-Holland,39159.0,31.68,27.34,1432.0,29800.0,52.51011775,4.63506088707317
123,Heemstede,Noord-Holland,27278.0,9.64,9.18,2951.0,40500.0,52.34282575,4.61807385354216
124,Heerde,Gelderland,18549.0,80.42,78.74,236.0,30300.0,52.3896323,6.0393181
125,Heerenveen,Friesland,50252.0,198.17,190.09,264.0,27900.0,52.9567361,5.93326787512682
126,Heerhugowaard,Noord-Holland,56749.0,39.99,38.21,1462.0,29300.0,52.6780162,4.85168859396379
127,Heerlen,Limburg,86826.0,45.53,44.94,1931.0,24800.0,50.8876735,5.9773285
128,Heeze-Leende,Noord-Brabant,15965.0,105.04,104.02,153.0,33800.0,51.35863595,5.57797730092697
129,Heiloo,Noord-Holland,23459.0,19.01,18.7,1235.0,33600.0,52.60192475,4.70503175175436
130,Den Helder,Noord-Holland,55600.0,178.8,45.25,1232.0,26400.0,52.9529894,4.8267591994488
131,Hellendoorn,Overijssel,35812.0,138.99,137.91,260.0,29000.0,52.41702665,6.45606138485585
132,Hellevoetsluis,Zuid-Holland,40041.0,61.2,41.1,973.0,30400.0,51.8433469,4.12130277209192
133,Helmond,Noord-Brabant,91535.0,54.75,53.18,1709.0,27200.0,51.4790956,5.6557686
134,Hendrik-Ido-Ambacht,Zuid-Holland,30962.0,11.9,10.61,2891.0,31700.0,51.84664995,4.63428041666292
135,Hengelo,Overijssel,80660.0,61.83,60.84,1325.0,27100.0,52.2658726,6.7924049
136,'s-Hertogenbosch,Noord-Brabant,154231.0,118.07,110.25,1392.0,30100.0,51.7099698,5.29191613945104
137,Heumen,Gelderland,16483.0,41.54,39.76,414.0,32900.0,51.77125035,5.83116690002907
138,Heusden,Noord-Brabant,44107.0,81.22,78.88,554.0,30500.0,51.7335641,5.1382012
139,Hillegom,Zuid-Holland,21963.0,13.47,12.87,1694.0,30600.0,52.29482605,4.57297125640167
140,Hilvarenbeek,Noord-Brabant,15330.0,96.51,94.85,162.0,32400.0,51.4862924,5.1379984
141,Hilversum,Noord-Holland,90198.0,46.35,45.61,1963.0,31600.0,52.23158695,5.17349360239234
142,Hoeksche Waard,Zuid-Holland,86642.0,,,,,51.76453615,4.43343164856602
143,Hof van Twente,Overijssel,34946.0,215.41,212.56,164.0,30700.0,52.2359271,6.56686374252827
144,Het Hogeland,Groningen (provincie),49434.0,,,,,53.41292275,6.50572993763598
145,Hollands Kroon,Noord-Holland,47802.0,662.2,357.34,133.0,29200.0,52.8759468,4.96550471204737
146,Hoogeveen,Drenthe,55678.0,129.25,127.54,437.0,26400.0,52.7202393,6.4759313
147,Hoorn,Noord-Holland,73037.0,53.46,20.38,3573.0,28600.0,52.62254545,5.06772658814782
148,Horst aan de Maas,Limburg,42293.0,191.92,188.73,224.0,29900.0,51.4515953,6.03089889322314
149,Houten,Utrecht (provincie),49902.0,58.99,54.94,902.0,34100.0,52.03061555,5.16121663942668
150,Huizen,Noord-Holland,41280.0,23.32,15.81,2617.0,32600.0,52.29648445,5.24058204069026
151,Hulst,Zeeland,27523.0,251.82,201.71,136.0,28900.0,51.291008,4.03741773697298
152,IJsselstein,Utrecht (provincie),34162.0,21.68,21.07,1628.0,32900.0,52.02620525,5.02868592322906
153,Kaag en Braassem,Zuid-Holland,26861.0,72.24,63.24,421.0,32700.000000000004,52.19304625,4.62163669903484
154,Kampen,Overijssel,53787.0,161.79,142.18,375.0,27200.0,52.5559484,5.9033303
156,Katwijk,Zuid-Holland,65312.0,31.15,24.75,2625.0,29700.0,52.19660355,4.39680477612367
157,Kerkrade,Limburg,45643.0,22.15,21.91,2092.0,24700.0,50.87205345,6.05930845735641
158,Koggenland,Noord-Holland,22736.0,84.08,80.32,282.0,31200.0,52.6475784,4.95232646863131
159,Krimpen aan den IJssel,Zuid-Holland,29353.0,8.95,7.69,3812.0,30400.0,51.9166979,4.60836987256427
160,Krimpenerwaard,Zuid-Holland,56043.0,161.31,148.4,375.0,31100.0,51.95574195,4.75784699750764
161,Laarbeek,Noord-Brabant,22334.0,56.17,55.35,400.0,30200.0,51.53228435,5.61265248893554
162,Landerd,Noord-Brabant,15523.0,70.71,70.35,218.0,31800.0,51.70925615,5.65085744234553
163,Landgraaf,Limburg,37596.0,24.67,24.58,1530.0,26800.0,50.9080845,6.0264604
164,Landsmeer,Noord-Holland,11498.0,26.5,22.53,508.0,34800.0,52.44966555,4.93020295468758
165,Langedijk,Noord-Holland,27986.0,27.03,23.88,1165.0,31500.0,52.6899114,4.7787321580756
166,Lansingerland,Zuid-Holland,61617.0,56.37,53.41,1145.0,35400.0,52.01101685,4.50764549523346
167,Laren,Noord-Holland,11198.0,12.41,12.41,898.0,54300.0,52.24253135,5.21624403043807
168,Leeuwarden,Friesland,123114.0,255.62,238.38,514.0,25900.0,53.19968475,5.80069089560234
169,Leiden,Zuid-Holland,124797.0,23.27,21.91,5674.0,29500.0,52.1518157,4.48110886662043
170,Leiderdorp,Zuid-Holland,27122.0,12.28,11.58,2350.0,32000.0,52.15705765,4.54337864705976
171,Leidschendam-Voorburg,Zuid-Holland,75405.0,35.62,32.55,2302.0,32400.0,52.09260105,4.43212497207516
172,Lelystad,Flevoland,77872.0,765.45,230.32,336.0,27300.0,52.53668095,5.3610435254128
173,Leudal,Limburg,35671.0,164.91,162.73,220.0,30300.0,51.2339148,5.89585313998546
174,Leusden,Utrecht (provincie),30028.0,58.89,58.54,508.0,33600.0,52.1187668,5.41711889973408
175,Lingewaard,Gelderland,46466.0,69.14,62.0,748.0,29900.0,51.9074337,5.94397213147062
176,Lisse,Zuid-Holland,22807.0,16.05,15.69,1450.0,30800.0,52.2540183,4.54192802967581
177,Lochem,Gelderland,33600.0,215.94,213.03,158.0,32600.0,52.158485,6.4143596
178,Loon op Zand,Noord-Brabant,23333.0,50.71,49.94,463.0,30100.0,51.6264405,5.0687815
179,Lopik,Utrecht (provincie),14477.0,78.98,75.57,190.0,32100.0,51.9752848,4.9491743
180,Loppersum,Groningen (provincie),9617.0,111.99,111.04,88.0,27400.0,53.3331502,6.7456942
181,Losser,Overijssel,22614.0,99.62,98.76,228.0,28100.0,52.2621361,7.0047679
182,Maasdriel,Gelderland,24703.0,75.46,66.11,368.0,30800.0,51.7853378,5.3167925055846
183,Maasgouw,Limburg,23718.0,58.12,45.71,518.0,30200.0,51.157703,5.89454297586926
184,Maassluis,Zuid-Holland,32786.0,10.12,8.48,3836.0,28600.0,51.9266671,4.24400065715733
185,Maastricht,Limburg,121623.0,60.12,55.99,2192.0,26800.0,50.8579855,5.69698811694244
186,Medemblik,Noord-Holland,44833.0,257.56,121.42,366.0,29500.0,52.768691,5.106195
187,Meerssen,Limburg,18923.0,27.7,26.96,706.0,31700.0,50.8850867,5.7529708
188,Meierijstad,Noord-Brabant,80823.0,185.52,184.09,435.0,31700.0,51.58844725,5.51639010470067
189,Meppel,Drenthe,33573.0,57.03,55.53,602.0,27800.0,52.71174435,6.19730732516372
190,Middelburg,Zeeland,48548.0,53.04,48.42,998.0,28600.0,51.50529485,3.61007100494229
191,Midden-Delfland,Zuid-Holland,19401.0,49.38,47.19,410.0,35500.0,51.97058165,4.32298095130087
192,Midden-Drenthe,Drenthe,33179.0,345.87,340.51,97.0,28900.0,52.87061935,6.5680558586578
193,Midden-Groningen,Groningen (provincie),60956.0,295.77,280.0,218.0,,53.1846736,6.77957351472961
194,Mill en Sint Hubert,Noord-Brabant,10889.0,53.17,52.23,207.0,29800.0,51.67911945,5.78699327214527
195,Moerdijk,Noord-Brabant,36963.0,184.03,159.15,232.0,30000.0,51.7033761,4.6259107
196,Molenlanden,Zuid-Holland,43871.0,,,,,51.89150435,4.83650264991257
197,Montferland,Gelderland,36028.0,106.64,105.7,337.0,28300.0,51.92400575,6.20551460161522
198,Montfoort,Utrecht (provincie),13996.0,38.2,37.57,369.0,33200.0,52.0387833,4.95608768463507
199,Mook en Middelaar,Limburg,7808.0,18.81,17.38,447.0,34300.0,51.74830635,5.90640637336831
200,Neder-Betuwe,Gelderland,24039.0,67.46,59.98,394.0,29000.0,51.92150995,5.6161232657105
201,Nederweert,Limburg,17005.0,101.78,99.98,170.0,29600.0,51.2856418,5.7496037
202,Nieuwegein,Utrecht (provincie),63055.0,25.65,23.51,2656.0,29200.0,52.0298704,5.09293340872922
203,Nieuwkoop,Zuid-Holland,28637.0,91.16,78.05,362.0,33400.0,52.1405891,4.7866964979
204,Nijkerk,Gelderland,42947.0,72.04,69.34,610.0,31500.0,52.2220116,5.4823124
205,Nijmegen,Gelderland,176707.0,57.6,53.06,3316.0,27100.0,51.84257485,5.83896062874823
206,Nissewaard,Zuid-Holland,84797.0,83.79,73.58,1150.0,28800.0,51.82787345,4.30528430592403
207,Noardeast-Fryslân,Friesland,45144.0,,,,,53.3681579,5.93890013514719
208,Noord-Beveland,Zeeland,7309.0,121.58,85.96,85.0,29100.0,51.56520675,3.80090957337831
209,Noordenveld,Drenthe,31270.0,205.29,199.41,162.0,29600.0,53.0953746,6.42084429673467
210,Noordoostpolder,Flevoland,46863.0,595.42,459.81,101.0,28200.0,52.7264415,5.70360560454972
211,Noordwijk,Zuid-Holland,42861.0,51.52,35.78,728.0,34800.0,52.2698999,4.45268588175161
212,Nuenen. Gerwen en Nederwetten,Noord-Brabant,23198.0,33.94,33.71,683.0,34400.0,51.48603,5.54400698882424
213,Nunspeet,Gelderland,27485.0,129.53,128.74,211.0,29600.0,52.37852,5.78078
214,Oegstgeest,Zuid-Holland,24432.0,7.97,7.31,3269.0,39100.0,52.1833669,4.47212943391864
215,Oirschot,Noord-Brabant,18627.0,102.84,101.78,182.0,32700.000000000004,51.5032385,5.3155486
216,Oisterwijk,Noord-Brabant,26128.0,65.13,63.84,409.0,34300.0,51.5778742,5.1938101
217,Oldambt,Groningen (provincie),38121.0,295.96,226.66,168.0,25000.0,53.2223408,7.06898239206217
218,Oldebroek,Gelderland,23594.0,98.84,97.65,241.0,27800.0,52.4456068,5.8990319
219,Oldenzaal,Overijssel,31855.0,21.95,21.55,1481.0,28100.0,52.30853685,6.91460374312224
220,Olst-Wijhe,Overijssel,18069.0,118.37,113.84,158.0,30100.0,52.3756076,6.14651065157313
221,Ommen,Overijssel,17817.0,182.01,179.9,98.0,29500.0,52.5208712,6.4253741
222,Oost Gelre,Gelderland,29700.0,110.44,109.93,270.0,29600.0,52.0153031,6.56101032746153
223,Oosterhout,Noord-Brabant,55610.0,73.09,71.47,772.0,29700.0,51.64447245,4.85136556866659
224,Ooststellingwerf,Friesland,25498.0,226.11,223.42,114.0,27000.0,52.99085895,6.30496375282077
225,Oostzaan,Noord-Holland,9755.0,16.08,11.53,845.0,32600.0,52.45218065,4.86854873250502
226,Opmeer,Noord-Holland,11779.0,41.94,41.5,278.0,30400.0,52.70438175,4.92856803713141
227,Opsterland,Friesland,29715.0,227.64,224.4,133.0,28500.0,53.04680105,6.09513572382903
228,Oss,Noord-Brabant,91437.0,170.93,163.16,557.0,29100.0,51.7649771,5.51138220829049
229,Oude IJsselstreek,Gelderland,39462.0,137.95,136.15,290.0,27500.0,51.90269995,6.39175330538544
230,Ouder-Amstel,Noord-Holland,13915.0,25.78,24.08,561.0,36400.0,52.2946678,4.91646890749465
231,Oudewater,Utrecht (provincie),10199.0,40.1,38.9,262.0,33500.0,52.02015625,4.89655977520417
232,Overbetuwe,Gelderland,47532.0,115.08,109.19,435.0,30500.0,51.92196125,5.78608154908832
233,Papendrecht,Zuid-Holland,32293.0,10.79,9.41,3427.0,30300.0,51.83482915,4.70479437720194
234,Peel en Maas,Limburg,43311.0,161.35,159.37,272.0,29900.0,51.33064175,5.97936370577334
235,Pekela,Groningen (provincie),12207.0,50.2,49.04,250.0,24500.0,53.0670783,6.96598796002487
236,Pijnacker-Nootdorp,Zuid-Holland,54321.0,38.62,37.08,1446.0,34300.0,52.0111357,4.42684813807231
237,Purmerend,Noord-Holland,80147.0,24.56,23.15,3454.0,28600.0,52.4997208,4.96442003688997
238,Putten,Gelderland,24200.0,87.5,85.22,285.0,31200.0,52.2608751,5.6100469
239,Raalte,Overijssel,37512.0,172.29,170.99,217.0,29500.0,52.3857034,6.2718277
240,Reimerswaal,Zeeland,22670.0,242.42,101.8,222.0,28400.0,51.44300185,4.10144103115675
241,Renkum,Gelderland,31304.0,47.23,45.95,682.0,31900.0,51.9751739,5.7334804
242,Renswoude,Utrecht (provincie),5258.0,18.51,18.4,281.0,,52.0724219,5.5308677368115
243,Reusel-De Mierden,Noord-Brabant,13060.0,78.66,77.88,167.0,31400.0,51.37099705,5.14686666916687
244,Rheden,Gelderland,43686.0,84.35,81.74,532.0,28600.0,52.0043836,6.0302806
245,Rhenen,Utrecht (provincie),20012.0,43.76,42.08,471.0,30300.0,51.9808476,5.57456236683099
246,Ridderkerk,Zuid-Holland,46255.0,25.26,23.72,1931.0,28800.0,51.8709913,4.59264789748535
247,Rijssen-Holten,Overijssel,38296.0,94.38,94.13,405.0,29300.0,52.28432485,6.44077738065718
248,Rijswijk,Zuid-Holland,53486.0,14.49,13.96,3740.0,29200.0,52.03739335,4.32250283752741
249,Roerdalen,Limburg,20616.0,88.79,88.21,235.0,29000.0,51.1454677,6.03439237329791
250,Roermond,Limburg,58194.0,71.05,60.81,950.0,27200.0,51.1927811,6.00395278289544
251,De Ronde Venen,Utrecht (provincie),44064.0,116.98,99.92,437.0,35800.0,52.23257135,4.92032224585349
252,Roosendaal,Noord-Brabant,77072.0,107.16,106.5,723.0,28300.0,51.5304587,4.46449384552466
253,Rotterdam,Zuid-Holland,644527.0,324.16,217.57,2936.0,26200.0,51.9228934,4.4631786
254,Rozendaal,Gelderland,1654.0,27.92,27.9,56.0,,52.0394752,5.96302498250436
255,Rucphen,Noord-Brabant,22585.0,64.48,64.41,348.0,28500.0,51.5328422,4.5597188
257,Schagen,Noord-Holland,46563.0,187.28,168.25,276.0,30000.0,51.222716,6.2545389
258,Scherpenzeel,Gelderland,9874.0,13.81,13.79,707.0,30200.0,52.09036885,5.50720244576025
259,Schiedam,Zuid-Holland,78094.0,19.86,17.82,4371.0,26400.0,51.9300454,4.38645105261573
260,Schiermonnikoog,Friesland,936.0,199.07,40.5,23.0,,53.48332935,6.20277366603738
261,Schouwen-Duiveland,Zeeland,33789.0,488.21,229.65,147.0,30600.0,51.6874353,3.87663408803365
262,Simpelveld,Limburg,10505.0,16.03,16.03,659.0,28000.0,50.8355496,5.9827262
263,Sint Anthonis,Noord-Brabant,11612.0,99.76,99.27,117.0,31900.0,51.626921,5.8816763
265,Sint-Michielsgestel,Noord-Brabant,28982.0,59.34,58.38,491.0,33000.0,51.6391001,5.3515392
266,Sittard-Geleen,Limburg,92627.0,80.58,79.01,1177.0,27500.0,51.0094043,5.8376057867168
267,Sliedrecht,Zuid-Holland,25018.0,14.01,12.84,1949.0,27900.0,51.8308564,4.76984303118367
268,Sluis,Zeeland,23391.0,307.16,279.36,84.0,28400.0,51.3097693,3.3848221
269,Smallingerland,Friesland,55939.0,126.17,117.31,476.0,26500.0,53.11525265,6.0507389155877
271,Someren,Noord-Brabant,19321.0,81.5,80.27,238.0,30500.0,51.3858887,5.7133677
272,Son en Breugel,Noord-Brabant,16911.0,26.51,25.95,646.0,34200.0,51.5178128,5.49143470757426
273,Stadskanaal,Groningen (provincie),31801.0,119.94,117.64,274.0,25100.0,52.9925618,6.9624466
274,Staphorst,Overijssel,17005.0,135.69,133.99,125.0,29500.0,52.6473009,6.2072973
275,Stede Broec,Noord-Holland,21702.0,16.37,14.5,1494.0,28300.0,52.6972919,5.22599031191976
276,Steenbergen,Noord-Brabant,25053.0,159.14,146.43,169.0,29300.0,51.58592,4.3145758
277,Steenwijkerland,Overijssel,43931.0,321.59,288.27,152.0,27700.0,52.7478796,6.02320314970118
279,Stichtse Vecht,Utrecht (provincie),64372.0,106.82,96.1,671.0,34300.0,52.20301145,4.99483765045446
280,Súdwest-Fryslân,Friesland,89705.0,907.11,522.26,172.0,27500.0,52.97483265,5.43607389246792
281,Terneuzen,Zeeland,54579.0,317.76,250.38,217.0,27900.0,51.3254737,3.8403111
282,Terschelling,Friesland,4889.0,673.99,85.26,58.0,,53.3339055,5.35149087569959
283,Texel,Noord-Holland,13551.0,463.16,162.0,84.0,29500.0,53.0775961,4.90573113717644
284,Teylingen,Zuid-Holland,37061.0,33.49,28.38,1289.0,34900.0,52.2174139,4.51138444863757
285,Tholen,Zeeland,25794.0,254.0,146.71,174.0,28200.0,51.5354462,4.2232813
286,Tiel,Gelderland,41995.0,35.51,32.88,1261.0,27700.0,51.89242535,5.43043817413793
287,Tilburg,Noord-Brabant,217342.0,118.13,116.17,1855.0,27000.0,51.57370915,5.0439311164373
288,Tubbergen,Overijssel,21275.0,147.44,147.0,144.0,30600.0,52.4081084,6.7818694
289,Twenterand,Overijssel,33785.0,108.14,106.17,319.0,27000.0,52.439304,6.63542757504466
290,Tynaarlo,Drenthe,33695.0,147.7,143.0,234.0,32200.000000000004,53.0790514,6.6199304
291,Tietjerksteradeel,Friesland,31764.0,161.41,148.86,214.0,28200.0,53.20512135,5.97344714650753
292,Uden,Noord-Brabant,41770.0,67.53,67.0,623.0,29500.0,51.6590888,5.6148605
293,Uitgeest,Noord-Holland,13536.0,22.29,19.16,705.0,32400.0,52.52329395,4.73746699027213
294,Uithoorn,Noord-Holland,29450.0,19.42,18.14,1623.0,31400.0,52.24400285,4.82816050635951
296,Utrecht (gemeente),Utrecht (provincie),352795.0,99.21,93.83,3703.0,30000.0,52.0671066,5.0940706
297,Utrechtse Heuvelrug,Utrecht (provincie),49526.0,133.94,132.01,374.0,35800.0,52.02865365,5.3948842829414
298,Vaals,Limburg,10094.0,23.9,23.89,413.0,25700.0,50.7710157,6.019049
299,Valkenburg aan de Geul,Limburg,16475.0,36.92,36.73,447.0,28900.0,50.86094405,5.81371000417852
300,Valkenswaard,Noord-Brabant,30892.0,56.5,54.92,558.0,29500.0,51.350688,5.4594497
301,Veendam,Groningen (provincie),27474.0,78.68,76.0,362.0,26000.0,53.1028443,6.8694863
302,Veenendaal,Utrecht (provincie),65599.0,19.72,19.46,3336.0,28800.0,52.02320415,5.55180028316229
303,Veere,Zeeland,21839.0,206.55,132.56,165.0,31900.0,51.5475163,3.6660882
304,Veldhoven,Noord-Brabant,45358.0,31.89,31.69,1418.0,31700.0,51.40770635,5.3927310581764
305,Velsen,Noord-Holland,68356.0,63.17,45.2,1501.0,29700.0,52.4519103,4.60389114587414
306,Venlo,Limburg,101578.0,128.99,124.25,814.0,26800.0,51.3769197,6.14948796750918
307,Venray,Limburg,43312.0,165.0,163.27,265.0,28900.0,51.5367139,5.9721181879782
308,Vijfheerenlanden,Utrecht (provincie),55703.0,,,,,51.9301978,5.04951711489125
309,Vlaardingen,Zuid-Holland,72455.0,26.69,23.57,3057.0,27000.0,51.9227863,4.32956337887085
310,Vlieland,Friesland,1139.0,315.8,39.15,29.0,,53.202995,4.99491262556725
311,Vlissingen,Zeeland,44372.0,344.84,34.31,1296.0,26400.0,51.49433865,3.41500576760136
312,Voerendaal,Limburg,12452.0,31.52,31.51,393.0,31100.0,50.8804521,5.926962
313,Voorschoten,Zuid-Holland,25476.0,11.56,11.14,2284.0,35300.0,52.12572195,4.44101686458321
314,Voorst,Gelderland,24401.0,126.47,122.97,198.0,30800.0,52.1730487,6.1415761
315,Vught,Noord-Brabant,26400.0,34.44,33.5,789.0,35900.0,51.656821,5.2893308
316,Waadhoeke,Friesland,46133.0,316.01,285.61,161.0,,53.2460054,5.61079777970859
317,Waalre,Noord-Brabant,17253.0,22.66,22.39,763.0,37300.0,51.3876404,5.4476871
318,Waalwijk,Noord-Brabant,48256.0,67.65,64.58,739.0,28800.0,51.6852544,5.0705122
319,Waddinxveen,Zuid-Holland,28311.0,29.4,27.77,993.0,30700.0,52.0443437,4.64159612038075
320,Wageningen,Gelderland,38781.0,32.36,30.42,1263.0,28800.0,51.9685817,5.66829806182796
321,Wassenaar,Zuid-Holland,26189.0,62.4,51.11,510.0,49100.0,52.14361135,4.37096681867845
322,Waterland,Noord-Holland,17306.0,115.66,52.11,331.0,34000.0,52.44350745,5.05810982203844
323,Weert,Limburg,49841.0,105.54,104.32,478.0,28700.0,51.2531334,5.7085827
324,Weesp,Noord-Holland,19331.0,24.16,22.79,840.0,30600.0,52.30444305,5.05853435200663
325,West Betuwe,Gelderland,50661.0,,,,,51.8697052,5.19413716794425
326,West Maas en Waal,Gelderland,19073.0,85.21,76.76,246.0,30100.0,51.8521914,5.49837974702748
327,Westerkwartier,Groningen (provincie),61464.0,,,,,53.21425645,6.34598133794401
328,Westerveld,Drenthe,19345.0,282.74,278.35,69.0,30000.0,52.82845325,6.31116226157661
329,Westervoort,Gelderland,14937.0,7.84,7.03,2136.0,27600.0,51.96159,5.98026
330,Westerwolde,Groningen (provincie),25244.0,280.65,275.67,90.0,,52.99946445,7.14045887009378
332,Weststellingwerf,Friesland,25837.0,228.45,220.3,117.0,26700.0,52.87191835,6.00867435965228
333,Westvoorne,Zuid-Holland,14628.0,97.48,53.18,273.0,37000.0,51.8882976,4.05990559031282
334,Wierden,Overijssel,24345.0,95.39,94.63,256.0,31000.0,52.35195215,6.56744842056736
335,Wijchen,Gelderland,40937.0,69.56,66.18,617.0,30100.0,51.8099983,5.7362233
336,Wijdemeren,Noord-Holland,24018.0,76.36,47.6,497.0,36100.0,52.2256115,5.09036779115721
337,Wijk bij Duurstede,Utrecht (provincie),23763.0,50.4,47.62,497.0,32299.999999999996,51.9775074,5.32692972728341
338,Winterswijk,Gelderland,28907.0,138.82,138.14,210.0,27400.0,51.9746432,6.7224185
339,Woensdrecht,Noord-Brabant,21861.0,91.97,91.66,238.0,29300.0,51.4297206,4.2975384
340,Woerden,Utrecht (provincie),52204.0,92.92,88.57,584.0,32800.0,52.08701595,4.8766871986735
341,De Wolden,Drenthe,24116.0,226.35,224.55,107.0,30300.0,52.70557745,6.33895417395422
342,Wormerland,Noord-Holland,16332.0,45.18,38.59,414.0,31600.0,52.50555225,4.85934288905351
343,Woudenberg,Utrecht (provincie),13165.0,36.82,36.53,356.0,31900.0,52.08025955,5.41222657616449
344,Zaanstad,Noord-Holland,155799.0,83.24,73.87,2097.0,27800.0,52.4689235,4.77378352245171
345,Zaltbommel,Gelderland,28441.0,89.04,79.38,353.0,30700.0,51.80498155,5.25456598621679
346,Zandvoort,Noord-Holland,17004.0,43.97,32.12,528.0,30900.0,52.3595916,4.53252402994204
347,Zeewolde,Flevoland,22312.0,268.86,247.23,91.0,29700.0,52.33580305,5.52801785114417
348,Zeist,Utrecht (provincie),63960.0,48.65,48.51,1305.0,34800.0,52.08653175,5.24900795767188
349,Zevenaar,Gelderland,43507.0,106.1,92.6,469.0,27900.0,51.9357252,6.0789395
350,Zoetermeer,Zuid-Holland,124947.0,37.05,34.45,3620.0,29600.0,52.06228915,4.48775455369488
351,Zoeterwoude,Zuid-Holland,8451.0,21.96,21.19,398.0,33700.0,52.11718945,4.50345950207935
352,Zuidplas,Zuid-Holland,42767.0,64.05,58.02,722.0,32800.0,51.9995787,4.61345093742516
353,Zundert,Noord-Brabant,21624.0,121.21,120.65,178.0,30100.0,51.4702197,4.6610472
354,Zutphen,Gelderland,47605.0,42.93,40.95,1161.0,27000.0,52.143222,6.2044441
355,Zwartewaterland,Overijssel,22502.0,87.86,82.49,272.0,29400.0,52.6099199,6.04552205192132
356,Zwijndrecht,Zuid-Holland,44654.0,22.77,20.3,2196.0,28700.0,51.82052005,4.62573151837953
357,Zwolle,Overijssel,127492.0,119.36,111.1,1135.0,28600.0,52.51456525,6.09772035967769
